stop_id,stop_code,stop_name,stop_desc,stop_lat,stop_lon,zone_id,stop_url,location_type,parent_station
08MAI01,57,"8MAI45",,49.099805,6.138669,,,0,
08MAI02,46,"8MAI45",,49.099927,6.138371,,,0,
11AVIAT1,450,"11èmeD'AVIATION",,49.085890,6.146239,,,0,
11AVIAT2,852,"11èmeD'AVIATION",,49.086159,6.145297,,,0,
19NOV01,928,"19NOVEMBRE",,49.091774,6.161323,,,0,
19NOV02,929,"19NOVEMBRE",,49.092028,6.161481,,,0,
2FONTAI1,519,"DEUXFONTAINES",,49.148061,6.171578,,,0,place_2FONT
2FONTAI2,451,"DEUXFONTAINES",,49.148956,6.171576,,,0,place_2FONT
30JOURS1,530,"TRENTEJOURS",,49.096271,6.245860,,,0,
30JOURS2,536,"TRENTEJOURS",,49.096403,6.245779,,,0,
3EVECHES,179,"TROISEVECHES",,49.106303,6.191888,,,0,
3HAIES1,101,"TROISHAIES",,49.090659,6.123135,,,0,
3HAIES2,115,"TROISHAIES",,49.090713,6.122693,,,0,
4BORNES1,161,"QUATREBORNES",,49.139202,6.153451,,,0,
4BORNES2,157,"QUATREBORNES",,49.139403,6.153449,,,0,
4VENTS1,362,"QUATREVENTS",,49.094514,6.176234,,,0,
4VENTS2,310,"QUATREVENTS",,49.094382,6.175952,,,0,
ABBEBAU1,806,"ABBEBAUZIN",,49.189290,6.035000,,,0,
ABBEBAU2,802,"ABBEBAUZIN",,49.189344,6.036790,,,0,
ABS591,591,"AUBEPINE",,49.071569,6.193588,,,0,place_AUBEPI
ACACIAS1,588,"ACACIAS",,49.073443,6.184514,,,0,
ACACIAS2,307,"ACACIAS",,49.073284,6.184477,,,0,
ACTISUD1,706,"ACTISUDDUNIL",,49.076518,6.102841,,,0,
ACTISUD2,707,"ACTISUDDUNIL",,49.076467,6.102942,,,0,
ALC01,6180,"FELIXALCAN",,49.112572,6.199158,,,0,
ALC02,6185,"FELIXALCAN",,49.112733,6.197773,,,0,
ALGER1,81,"ALGER",,49.094445,6.135356,,,0,
ALGER2,71,"ALGER",,49.094330,6.134834,,,0,
ALSACE1,55,"ALSACE",,49.097637,6.129110,,,0,
ALSACE2,48,"ALSACE",,49.097844,6.129581,,,0,
ALSLORR1,388,"ALSACE-LORRAINE",,49.121440,6.194683,,,0,
ALSLORR2,368,"ALSACE-LORRAINE",,49.121304,6.195390,,,0,
AMANVMA1,720,"AMANVILLERSMAIRIE",,49.167365,6.044078,,,0,
AMANVMA2,735,"AMANVILLERSMAIRIE",,49.167371,6.043769,,,0,
AMPERE1,680,"AMPERE",,49.103321,6.228833,,,0,
AMPERE2,679,"AMPERE",,49.103631,6.228814,,,0,
APREMON1,249,"APREMONT",,49.080330,6.187050,,,0,
APREMON2,578,"APREMONT",,49.079370,6.188011,,,0,
ARA01,6320,"FRANCOISARAGO",,49.101866,6.224284,,,0,place_ARAGO
ARA02,6325,"FRANCOISARAGO",,49.101866,6.224284,,,0,place_ARAGO
ARAGO002,2,"FRANCOISARAGO",,49.100638,6.220992,,,0,place_ARAGO
ARAGO035,35,"FRANCOISARAGO",,49.100578,6.222063,,,0,place_ARAGO
ARBALET2,767,"ARBALETRIERS",,49.050773,6.187018,,,0,
ARDECHE1,296,"ARDECHE",,49.101048,6.106695,,,0,
ARDECHE2,293,"ARDECHE",,49.101426,6.106284,,,0,
ARENES1,141,"ARENES",,49.105977,6.173652,,,0,
ARENES2,126,"ARENES",,49.105932,6.173607,,,0,
ARIANE1,571,"ARIANE",,49.095465,6.238675,,,0,
ARIANE2,568,"ARIANE",,49.094854,6.238771,,,0,
ARMOISI1,244,"ARMOISIERES",,49.075620,6.189540,,,0,
ARMOISI2,583,"ARMOISIERES",,49.077294,6.189373,,,0,
ARP309,309,"AUBEPINE",,49.072249,6.193072,,,0,place_AUBEPI
ARSENAL1,499,"ARSENAL",,49.122882,6.187083,,,0,
ARSENAL2,476,"ARSENAL",,49.122881,6.187075,,,0,
ARSLAQU1,454,"ARSLAQUENEXY",,49.092781,6.270088,,,0,
ARSLAQU2,453,"ARSLAQUENEXY",,49.092863,6.270358,,,0,
ARSMOSL1,826,"ARSSURMOSELLE",,49.075770,6.076469,,,0,
ARSMOSL2,822,"ARSSURMOSELLE",,49.075910,6.076660,,,0,
ARTILLE1,390,"ARTILLEURS",,49.120281,6.193512,,,0,
ARTILLE2,366,"ARTILLEURS",,49.120190,6.193145,,,0,
ATELMUN1,725,"ATELIERSMUNICIPAUX",,49.142480,6.121819,,,0,
ATELMUN2,730,"ATELIERSMUNICIPAUX",,49.142484,6.121813,,,0,
AUBIGNY1,429,"AUBIGNY",,49.094182,6.269990,,,0,
AUGNYMA1,702,"AUGNYMAIRIE",,49.058685,6.121884,,,0,
AUGNYMA2,711,"AUGNYMAIRIE",,49.058673,6.121897,,,0,
AULNES1,608,"AULNES",,49.127244,6.207680,,,0,
AULNES2,598,"AULNES",,49.127299,6.207678,,,0,
AVMAGNY1,5020,"AVENUEDEMAGNY",,49.064094,6.167042,,,0,
AZALEES1,5023,"AZALEES",,49.067314,6.168029,,,0,
BARBE1,488,"BARBE",,49.129598,6.230058,,,0,
BARBE2,487,"BARBE",,49.129374,6.229538,,,0,
BAUCHEZ1,408,"BAUCHEZ",,49.136653,6.143134,,,0,
BAUCHEZ2,401,"BAUCHEZ",,49.136481,6.142772,,,0,
BEAUSOL1,554,"BEAUSOLEIL",,49.075849,6.187141,,,0,
BEAUSOL2,584,"BEAUSOLEIL",,49.075712,6.186836,,,0,
BEL01,6200,"BELLETANCHE",,49.110649,6.210641,,,0,
BEL02,6205,"BELLETANCHE",,49.110649,6.210640,,,0,
BELFONT1,469,"BELLEFONTAINE",,49.066876,6.142687,,,0,
BELFONT2,471,"BELLEFONTAINE",,49.066950,6.142790,,,0,
BELLEVU1,874,"BELLEVUE",,49.172243,6.152899,,,0,
BER01,6070,"GEORGESBERNANOS",,49.133318,6.168920,,,0,place_GBERN
BER02,6075,"GEORGESBERNANOS",,49.133318,6.168920,,,0,place_GBERN
BERLANG1,892,"BERLANGE",,49.155741,6.157121,,,0,
BERLANG2,893,"BERLANGE",,49.156149,6.157198,,,0,
BERNANO1,166,"GEORGESBERNANOS",,49.132944,6.167915,,,0,place_GBERN
BERNANO2,192,"GEORGESBERNANOS",,49.132970,6.167800,,,0,place_GBERN
BERNARD1,472,"BERNARD",,49.113890,6.212200,,,0,
BERNARD2,462,"BERNARD",,49.114590,6.211458,,,0,
BERNE1,389,"BERNE",,49.122856,6.193868,,,0,
BERNE2,367,"BERNE",,49.122961,6.194159,,,0,
BILLOTT1,496,"BILLOTTE",,49.125919,6.196648,,,0,
BILLOTT2,479,"BILLOTTE",,49.125580,6.197468,,,0,
BLE01,6230,"HAUTSDEBLEMONT",,49.115617,6.225858,,,0,
BLE02,6235,"HAUTSDEBLEMONT",,49.115617,6.225857,,,0,
BLEUETS1,5021,"BLEUETS",,49.066498,6.164469,,,0,
BLIDA1,612,"BLIDA",,49.125886,6.181395,,,0,
BLIDA2,594,"BLIDA",,49.125745,6.181341,,,0,
BOILEAU1,455,"BOILEAU",,49.142824,6.168608,,,0,
BOILEAU2,444,"BOILEAU",,49.142960,6.169393,,,0,
BOILVIN1,140,"BOILVIN",,49.103244,6.174837,,,0,
BOILVIN2,127,"BOILVIN",,49.103434,6.174773,,,0,
BONSEC1,111,"BONSECOURS",,49.107062,6.168939,,,0,
BONSEC2,92,"BONSECOURS",,49.107180,6.168711,,,0,
BOR01,6220,"LESBORDES",,49.114383,6.220983,,,0,
BOR02,6225,"LESBORDES",,49.114383,6.220983,,,0,
BORDES1,21,"LESBORDES",,49.114289,6.222095,,,0,
BORDES2,13,"LESBORDES",,49.114256,6.222136,,,0,
BOTANIQ1,65,"BOTANIQUE",,49.103530,6.161950,,,0,
BOTANIQ2,38,"BOTANIQUE",,49.103745,6.162015,,,0,
BOUCHOT1,253,"BOUCHOTTE",,49.092605,6.181247,,,0,
BOUCHOT2,238,"BOUCHOTTE",,49.092494,6.181268,,,0,
BOURGOG1,994,"BOURGOGNE",,49.114270,6.227250,,,0,
BOURGOG2,993,"BOURGOGNE",,49.114206,6.226991,,,0,
BOUZONV1,5053,"BOUZONVILLE",,49.135105,6.213814,,,0,
BOUZONV2,5046,"BOUZONVILLE",,49.135420,6.213610,,,0,
BRAZZA1,5016,"BRAZZA",,49.057216,6.167581,,,0,
BREUIL1,784,"BREUIL",,49.160455,6.225830,,,0,
BREUIL2,783,"BREUIL",,49.160373,6.225746,,,0,
BRG01,6300,"HENRIBERGSON",,49.108553,6.220678,,,0,
BRG02,6305,"HENRIBERGSON",,49.108553,6.220678,,,0,
BRION1,330,"BRION",,49.129720,6.133051,,,0,
BRION2,321,"BRION",,49.129800,6.134161,,,0,
BRIVAGE1,215,"BEAURIVAGE",,49.115957,6.150888,,,0,
BRIVAGE2,206,"BEAURIVAGE",,49.115925,6.150958,,,0,
BUCHOZ1,410,"BUCHOZ",,49.135377,6.149340,,,0,
BUCHOZ2,399,"BUCHOZ",,49.135269,6.149745,,,0,
BUTTE1,423,"LABUTTE",,49.133180,6.147326,,,0,
BUTTE2,415,"LABUTTE",,49.132846,6.147001,,,0,
CAILLOU1,406,"CAILLOUX",,49.134823,6.137339,,,0,
CAILLOU2,403,"CAILLOUX",,49.134414,6.136247,,,0,
CAMELIA1,5022,"CAMELIAS",,49.065974,6.159642,,,0,
CARCAN1,839,"CARCAN",,49.093697,6.086800,,,0,
CARCAN2,838,"CARCAN",,49.093788,6.086953,,,0,
CARREFO1,726,"CARREFOUR",,49.144461,6.127705,,,0,
CARREFO2,729,"CARREFOUR",,49.144416,6.127746,,,0,
CARRIER1,606,"CARRIERES",,49.130021,6.209006,,,0,
CARRIER2,5042,"CARRIERES",,49.129943,6.209638,,,0,
CAS01,6060,"RENECASSIN",,49.135897,6.165947,,,0,
CAS02,6065,"RENECASSIN",,49.135429,6.166355,,,0,
CASINO1,214,"CASINO",,49.116462,6.141333,,,0,
CASINO2,207,"CASINO",,49.116590,6.141350,,,0,
CASTORS1,332,"CASTORS",,49.128455,6.145880,,,0,
CASTORS2,319,"CASTORS",,49.128528,6.145790,,,0,
CEDRBL01,5081,"CEDREBLEU",,49.033846,6.158180,,,0,
CEDRBL02,5082,"CEDREBLEU",,49.033781,6.158202,,,0,
CEDRES1,609,"CEDRES",,49.127402,6.211912,,,0,
CEDRES2,597,"CEDRES",,49.127435,6.211657,,,0,
CENTRAL1,626,"CENTRALE",,49.155053,6.185996,,,0,
CENTRAL2,618,"CENTRALE",,49.154657,6.186342,,,0,
CHA01,6030,"DOCTEURCHARCOT",,49.148334,6.166976,,,0,
CHA02,6035,"DOCTEURCHARCOT",,49.148333,6.166976,,,0,
CHAHURY1,660,"CHAHURY",,49.117684,6.084856,,,0,
CHAMBIE1,209,"CHAMBIERE",,49.128012,6.185589,,,0,
CHAMBIE2,208,"CHAMBIERE",,49.127445,6.184454,,,0,
CHAMPAG1,5071,"CHAMPAGNE",,49.041489,6.160633,,,0,
CHAMPAG2,5073,"CHAMPAGNE",,49.041291,6.160845,,,0,
CHAMPBA1,809,"CHAMPBANAL",,49.172679,6.045553,,,0,
CHAMPBA2,799,"CHAMPBANAL",,49.173119,6.045314,,,0,
CHANTRE1,791,"CHANTRENNE",,49.144089,6.010451,,,0,
CHAPELL1,723,"CHAPELLE",,49.141719,6.115710,,,0,
CHAPELL2,732,"CHAPELLE",,49.141710,6.115170,,,0,
CHAPITR1,855,"CHAPITRE",,49.152114,6.161439,,,0,
CHAPITR2,741,"CHAPITRE",,49.152099,6.161795,,,0,
CHAPPE2,567,"CHAPPE",,49.107078,6.222231,,,0,
CHAPPE3,573,"CHAPPE",,49.106646,6.221859,,,0,
CHARDIN1,452,"DECHARDIN",,49.144521,6.171863,,,0,
CHARDIN2,449,"DECHARDIN",,49.144072,6.172134,,,0,
CHATRIA1,3003,"CHATRIAN",,49.103365,6.148971,,,0,
CHATRIA2,3014,"CHATRIAN",,49.103241,6.148767,,,0,
CHAULME1,749,"LESCHAULMES",,49.133547,6.276049,,,0,
CHAULME2,756,"LESCHAULMES",,49.134059,6.275862,,,0,
CHAVEAU1,5068,"LECHAVEAU",,49.032045,6.150858,,,0,
CHAVEAU2,5076,"LECHAVEAU",,49.032098,6.150974,,,0,
CHDAMES1,657,"CHEMINDESDAMES",,49.117186,6.087779,,,0,
CHDAMES2,661,"CHEMINDESDAMES",,49.116909,6.088335,,,0,
CHENEAU1,813,"CHENEAU",,49.108874,6.120753,,,0,
CHENEAU2,812,"CHENEAU",,49.108911,6.120849,,,0,
CHENEVI1,624,"CHENEVIERES",,49.165758,6.189607,,,0,
CHENEVI2,620,"CHENEVIERES",,49.165848,6.189651,,,0,
CHENOIR1,849,"CHEMINNOIR",,49.114183,6.097958,,,0,
CHENOIR2,848,"CHEMINNOIR",,49.114174,6.098110,,,0,
CHESNYM1,991,"CHESNYMAIRIE",,49.054562,6.242312,,,0,
CHESNYM2,992,"CHESNYMAIRIE",,49.054713,6.243258,,,0,
CHEVHAI1,776,"CHEVREHAIE",,49.054793,6.187605,,,0,
CHEVHAI2,777,"CHEVREHAIE",,49.054793,6.187367,,,0,
CHEVROT1,962,"CHEVROTTES",,49.092723,6.274342,,,0,
CHEVROT2,961,"CHEVROTTES",,49.092687,6.274646,,,0,
CHIEULL1,747,"CHIEULLES",,49.159388,6.228902,,,0,
CHIEULL2,746,"CHIEULLES",,49.159482,6.228822,,,0,
CHPETRE1,110,"CHARLESPETRE",,49.105162,6.166510,,,0,
CHPETRE2,93,"CHARLESPETRE",,49.105362,6.166723,,,0,
CIM01,6190,"CIMETIEREDEL'EST",,49.109880,6.203370,,,0,
CIM02,6195,"CIMETIEREDEL'EST",,49.109380,6.204139,,,0,
CIMETIE1,5048,"CIMETIERE",,49.137145,6.205757,,,0,
CIMETIE2,5038,"CIMETIERE",,49.137238,6.205973,,,0,
CITSNCF1,79,"CITESNCF",,49.090784,6.128191,,,0,
CITSNCF2,73,"CITESNCF",,49.090555,6.127341,,,0,
CLAUDEL1,186,"CLAUDEL",,49.101696,6.199568,,,0,
CLAUDEL2,189,"CLAUDEL",,49.101675,6.198796,,,0,
CLEMENC1,827,"CLEMENCEAU",,49.080950,6.084650,,,0,
CLEMENC2,821,"CLEMENCEAU",,49.080190,6.083839,,,0,
CLERCS01,1021,"RUEDESCLERCS",,49.117634,6.174177,,,0,
CLERY1,659,"CLERY",,49.121180,6.080617,,,0,
CLETTE1,405,"CLETTE",,49.133306,6.133817,,,0,
CLETTE2,404,"CLETTE",,49.133149,6.133578,,,0,
CLMADER1,932,"CLEMENTADER",,49.089306,6.149641,,,0,
CLMADER2,925,"CLEMENTADER",,49.089360,6.149513,,,0,
CLO01,6240,"CLOUTIERS",,49.114068,6.230111,,,0,place_CLOUT
CLO02,6245,"CLOUTIERS",,49.114069,6.230111,,,0,place_CLOUT
CLOUTIE1,552,"CLOUTIERS",,49.114657,6.228721,,,0,place_CLOUT
CLOUTIE2,549,"CLOUTIERS",,49.114841,6.229425,,,0,place_CLOUT
COETLO01,1022,"COETLOSQUET",,49.114505,6.176820,,,0,
COETLO02,1023,"COETLOSQUET",,49.114410,6.176863,,,0,
COINCUV1,5069,"COIN-LES-CUVRY",,49.033599,6.155319,,,0,
COINCUV2,5075,"COIN-LES-CUVRY",,49.033533,6.155111,,,0,
COINSEI1,5067,"COIN-SUR-SEILLE",,49.009062,6.159809,,,0,
COL01,6250,"COLOMBEY",,49.110852,6.230559,,,0,
COL02,6255,"COLOMBEY",,49.110852,6.230559,,,0,
COLIBRI1,413,"COLIBRI",,49.130282,6.158433,,,0,
COLIBRI2,396,"COLIBRI",,49.130103,6.158698,,,0,
COLLIGN1,347,"COLLIGNON",,49.104216,6.187226,,,0,
COLLIGN2,337,"COLLIGNON",,49.104450,6.187221,,,0,
COLOMBI1,781,"COLOMBIER",,49.048271,6.185544,,,0,
COLSON1,103,"COLSON",,49.090403,6.166435,,,0,
COLSON2,100,"COLSON",,49.089855,6.166131,,,0,
COMEDIE2,643,"COMEDIE",,49.120940,6.172891,,,0,
CONSTAN1,87,"CONSTANTINE",,49.092004,6.125538,,,0,
CONSTAN2,83,"CONSTANTINE",,49.092329,6.125090,,,0,
CORBON1,964,"JURYCORBON",,49.067530,6.256580,,,0,
CORCHAD1,492,"CORCHADE",,49.123104,6.215393,,,0,
CORCHAD2,483,"CORCHADE",,49.123113,6.215394,,,0,
COSTEBE1,5035,"COSTESETBELLONTE",,49.083529,6.148852,,,0,
COSTEBE2,5001,"COSTESETBELLONTE",,49.084244,6.149394,,,0,
COTEAUX1,688,"COTEAUX",,49.154783,6.148493,,,0,
COTEAUX2,687,"COTEAUX",,49.154923,6.148907,,,0,
COUBERT1,691,"COUBERTIN",,49.091847,6.144800,,,0,
COUBERT2,506,"COUBERTIN",,49.092130,6.144821,,,0,
COUPILL1,159,"COUPILLON",,49.141383,6.148190,,,0,
COUPILL2,630,"COUPILLON",,49.141640,6.148119,,,0,
COUVENT1,3004,"COUVENTS",,49.103300,6.153439,,,0,
COUVENT2,3013,"COUVENTS",,49.103599,6.152313,,,0,
CRIMEE1,831,"CRIMEE",,49.114362,6.112973,,,0,
CRIMEE2,830,"CRIMEE",,49.113563,6.113576,,,0,
CROIXDO2,326,"CROIXD'OREE",,49.132311,6.125594,,,0,
CRRD601,829,"CROISEMENTRD6",,49.093033,6.094850,,,0,
CRRD602,819,"CROISEMENTRD6",,49.093843,6.095458,,,0,
CSG1,658,"CHATEL-ST-GERMAIN",,49.122211,6.081531,,,0,
CTU01,6270,"CITEU",,49.120318,6.159563,,,0,
CTU02,6275,"CITEU",,49.119988,6.159676,,,0,
CUGNOT1,315,"CUGNOT",,49.085499,6.163466,,,0,
CUVION1,570,"CUVION",,49.092441,6.242709,,,0,
CUVION2,569,"CUVION",,49.092437,6.242739,,,0,
CUVRY1,5000,"CUVRY",,49.042924,6.158807,,,0,
CUVRY2,5072,"CUVRY",,49.042924,6.158807,,,0,
D95301,891,"D953",,49.162702,6.160188,,,0,
D95302,894,"D953",,49.162763,6.160208,,,0,
DAGA1,162,"DAGA",,49.136627,6.155927,,,0,
DAGA2,156,"DAGA",,49.136455,6.155988,,,0,
DALES1,559,"DALES",,49.132861,6.165016,,,0,
DALES2,997,"DALES",,49.133230,6.164190,,,0,
DEVILLY1,180,"DEVILLY",,49.105037,6.194409,,,0,
DOLICHE1,546,"DOLICHE",,49.094073,6.245623,,,0,
DOLICHE2,146,"DOLICHE",,49.094632,6.245910,,,0,
DOUANIE1,810,"DOUANIERS",,49.170071,6.047941,,,0,
DOUANIE2,798,"DOUANIERS",,49.169136,6.049008,,,0,
DRAPIER1,448,"DRAPIERS",,49.109577,6.247579,,,0,
DRAPIER2,445,"DRAPIERS",,49.109489,6.247751,,,0,
DUCROCQ1,346,"DUCROCQ",,49.101894,6.188220,,,0,
DUCROCQ2,338,"DUCROCQ",,49.101336,6.188396,,,0,
DUNANT1,495,"DUNANT",,49.123674,6.203367,,,0,
DUNANT2,480,"DUNANT",,49.123912,6.202341,,,0,
DUPLOYE1,178,"DUPLOYE",,49.109431,6.189069,,,0,
ECO01,6340,"GRANDESECOLES",,49.093373,6.230112,,,0,place_GECOL
ECO02,6345,"GRANDESECOLES",,49.093373,6.230111,,,0,place_GECOL
ECOLES1,5026,"LESECOLES",,49.058991,6.156305,,,0,
ECOLES2,5011,"LESECOLES",,49.058850,6.156548,,,0,
EGLISE1,138,"EGLISE",,49.099076,6.173745,,,0,
EGLISE2,236,"EGLISE",,49.098724,6.173378,,,0,
ERABLE1,5054,"ERABLES",,49.131655,6.205405,,,0,
ERABLE2,5040,"ERABLES",,49.131326,6.205180,,,0,
ERMITAG1,789,"ERMITAGE",,49.118285,6.096176,,,0,
ERMITAG2,786,"ERMITAGE",,49.118339,6.096493,,,0,
EUROPAC1,64,"EUROPACOURCELLES",,49.101840,6.158270,,,0,
EUROPAC2,39,"EUROPACOURCELLES",,49.102140,6.158850,,,0,
EXP01,6350,"P+RFOIREEXPO",,49.091479,6.231423,,,0,
EXP02,6355,"P+RFOIREEXPO",,49.091478,6.231423,,,0,
FALEE1,752,"FALEE",,49.132878,6.252840,,,0,
FALEE2,753,"FALEE",,49.133140,6.253600,,,0,
FALOGNE1,430,"FALOGNE",,49.098031,6.240201,,,0,
FALOGNE2,428,"FALOGNE",,49.098061,6.240259,,,0,
FAUBOUG1,250,"FAUBOURG",,49.085410,6.182650,,,0,
FAUBOUG2,251,"FAUBOURG",,49.085047,6.182645,,,0,
FAURNEL1,431,"FAURNEL",,49.100494,6.243039,,,0,
FAURNEL2,427,"FAURNEL",,49.099855,6.242892,,,0,
FEIVRES1,425,"FEIVRES",,49.115093,6.240704,,,0,
FEIVRES2,426,"FEIVRES",,49.114811,6.240075,,,0,
FELIX320,320,"FELIXMARECHAL",,49.129290,6.137230,,,0,
FELIX376,376,"FELIXMARECHAL",,49.129169,6.137807,,,0,
FELIX420,420,"FELIXMARECHAL",,49.129490,6.138200,,,0,
FEY1,845,"FEY",,49.029107,6.096660,,,0,
FEY2,841,"FEY",,49.029064,6.096633,,,0,
FMOSELL1,291,"FORTMOSELLE",,49.123970,6.165111,,,0,
FMOSELL2,265,"FORTMOSELLE",,49.124674,6.164548,,,0,
FOCH1,515,"FOCH",,49.120700,6.148530,,,0,
FOCH2,229,"FOCH",,49.120940,6.148440,,,0,
FON01,6020,"DEUXFONTAINES",,49.149369,6.172123,,,0,place_2FONT
FON02,6025,"DEUXFONTAINES",,49.149369,6.172123,,,0,place_2FONT
FONNY1,564,"FONNY",,49.129600,6.235049,,,0,
FONNY2,562,"FONNY",,49.129560,6.234880,,,0,
FONTAIN1,520,"FONTAINES",,49.146413,6.171656,,,0,
FONTAIN2,543,"FONTAINES",,49.146556,6.171875,,,0,
FOSSE1,686,"FOSSE",,49.100456,6.145343,,,0,
FOSSE2,685,"FOSSE",,49.100239,6.145210,,,0,
FOUGERE1,381,"FOUGERES",,49.122548,6.218963,,,0,
FOUGERE2,375,"FOUGERES",,49.121796,6.219060,,,0,
FOURNIE1,697,"FOURNIER",,49.122430,6.183338,,,0,
FOURNIE2,696,"FOURNIER",,49.122442,6.183439,,,0,
FOURNIR1,1008,"ENFOURNIRUE",,49.118009,6.178726,,,0,
FRANCLO1,622,"FRANCLONCHAMPS",,49.171176,6.189698,,,0,
FRECOT1,252,"FRECOT",,49.090622,6.181629,,,0,
FRECOT2,239,"FRECOT",,49.091320,6.181540,,,0,
FRENES1,605,"FRENES",,49.131715,6.211300,,,0,
FRENES2,5043,"FRENES",,49.132258,6.211787,,,0,
FRIANT1,349,"FRIANT",,49.108489,6.187704,,,0,
FRIANT2,335,"FRIANT",,49.108292,6.187799,,,0,
FRICHES1,58,"LESFRICHES",,49.099956,6.141987,,,0,
FRICHES2,45,"LESFRICHES",,49.100092,6.141906,,,0,
FRIERES1,727,"FRIERES",,49.140225,6.135597,,,0,
FRIERES2,728,"FRIERES",,49.140389,6.135206,,,0,
FRONTIG1,971,"FRONTIGNY",,49.058520,6.264080,,,0,
FRONTIG2,989,"FRONTIGNY",,49.058560,6.263770,,,0,
GAMBETT1,459,"GAMBETTA",,49.149412,6.159712,,,0,
GAMBETT2,475,"GAMBETTA",,49.149042,6.159950,,,0,
GANNE1,473,"GANNE",,49.115663,6.203952,,,0,
GANNE2,461,"GANNE",,49.115691,6.205455,,,0,
GAR01,6140,"GARE",,49.110368,6.177609,,,0,place_GSNCF
GAR02,6145,"GARE",,49.110368,6.177612,,,0,place_GSNCF
GARE113,113,"GARE",,49.110333,6.175233,,,0,place_GSNCF
GARE30,30,"GARE",,49.111060,6.177060,,,0,place_GSNCF
GARE4,4,"GARE",,49.110660,6.176990,,,0,place_GSNCF
GARE90,90,"GARE",,49.110090,6.176000,,,0,place_GSNCF
GAREAUG1,712,"GARED'AUGNY",,49.070241,6.137608,,,0,
GAREAUG2,701,"GARED'AUGNY",,49.070173,6.137548,,,0,
GARENNE1,5033,"GARENNES",,49.076504,6.146581,,,0,
GARENNE2,5003,"GARENNES",,49.076504,6.146581,,,0,
GAREWOI1,860,"GAREDEWOIPPY",,49.148622,6.155402,,,0,
GAREWOI2,857,"GAREDEWOIPPY",,49.148684,6.155414,,,0,
GARGAN01,966,"GARGAN",,49.075660,6.226840,,,0,
GARGAN02,982,"GARGAN",,49.075720,6.226751,,,0,
GDECOLE1,575,"GRANDESECOLES",,49.093513,6.229834,,,0,place_GECOL
GDECOLE2,854,"GRANDESECOLES",,49.093679,6.230222,,,0,place_GECOL
GDFLAME1,808,"GRANDEFLAMEE",,49.182847,6.040271,,,0,
GDFLAME2,800,"GRANDEFLAMEE",,49.183086,6.040148,,,0,
GDMAISO1,344,"GRANDMAISON",,49.098141,6.194560,,,0,
GDMAISO2,340,"GRANDMAISON",,49.098026,6.194235,,,0,
GENDARM1,194,"GENDARMERIE",,49.104692,6.199506,,,0,
GENDARM2,182,"GENDARMERIE",,49.104620,6.199807,,,0,
GENERAL1,342,"GENERALFRERE",,49.099973,6.205506,,,0,
GENERAL2,566,"GENERALFRERE",,49.100258,6.206111,,,0,
GENIE1,66,"GENIE",,49.105495,6.163655,,,0,
GENIE2,37,"GENIE",,49.105230,6.163460,,,0,
GENIVAU1,382,"GENIVAUX",,49.122093,6.216607,,,0,
GENIVAU2,374,"GENIVAUX",,49.122094,6.216592,,,0,
GIRAUDO1,343,"GIRAUDOUX",,49.097516,6.199615,,,0,
GIRAUDO2,341,"GIRAUDOUX",,49.097190,6.200550,,,0,
GLISSU1,846,"GLISSU",,49.055839,6.119819,,,0,
GLISSU2,840,"GLISSU",,49.055862,6.119844,,,0,
GOUSSEL1,187,"GOUSSEL",,49.101521,6.194532,,,0,
GOUSSEL2,188,"GOUSSEL",,49.101557,6.195569,,,0,
GRA01,6310,"GRAHAMBELL",,49.105102,6.223345,,,0,
GRA02,6315,"GRAHAMBELL",,49.105102,6.223345,,,0,
GRAVELO1,795,"GRAVELOTTEEGLISE",,49.109121,6.030342,,,0,
GRAVELO2,793,"GRAVELOTTEEGLISE",,49.109137,6.030328,,,0,
GRAVIER1,963,"GRAVIERES",,49.080800,6.110390,,,0,
GRDAMES1,627,"GRANGE-AUX-DAMES",,49.146123,6.190577,,,0,
GRDAMES2,617,"GRANGE-AUX-DAMES",,49.146467,6.190832,,,0,
GRDRUE1,721,"GRANDRUE",,49.168624,6.048391,,,0,
GRDRUE2,734,"GRANDRUE",,49.168641,6.048531,,,0,
GRIGY1,895,"GRIGY",,49.095068,6.220689,,,0,
GRIGY2,898,"GRIGY",,49.095073,6.220749,,,0,
GRIMONT1,5057,"GRIMONT",,49.140488,6.217544,,,0,
GRORMES1,5034,"GRANGEAUXORMES",,49.080851,6.146461,,,0,
GRORMES2,5002,"GRANGEAUXORMES",,49.080670,6.146240,,,0,
GUY01,6290,"GUYENNE",,49.111443,6.218923,,,0,
GUY02,6295,"GUYENNE",,49.111443,6.218923,,,0,
HAIEBRU1,210,"HAIEBRULEE",,49.110841,6.097291,,,0,
HAIEBRU2,278,"HAIEBRULEE",,49.111049,6.096904,,,0,
HAMJER01,807,"HAMEAUJERUSALEM",,49.186009,6.037485,,,0,
HAMJER02,801,"HAMEAUJERUSALEM",,49.186068,6.037720,,,0,
HBOUTAN1,5015,"HAUTSDEBOUTAN",,49.067217,6.169898,,,0,
HERMITE1,348,"HERMITE",,49.105859,6.187393,,,0,
HERMITE2,336,"HERMITE",,49.105763,6.187373,,,0,
HESTAUX1,286,"HESTAUX",,49.100964,6.191641,,,0,
HESTAUX2,287,"HESTAUX",,49.100936,6.191504,,,0,
HETRES1,5055,"HETRES",,49.131963,6.209181,,,0,
HETRES2,5041,"HETRES",,49.132344,6.208729,,,0,
HMERCY1,902,"HOPITALMERCY",,49.085830,6.243860,,,0,place_HMERC
HMERCY2,900,"HOPITALMERCY",,49.085840,6.243710,,,0,place_HMERC
HORGNE1,511,"LAHORGNE",,49.092979,6.172841,,,0,
HORGNE2,134,"LAHORGNE",,49.093283,6.172531,,,0,
HOTELVI1,5027,"HOTELDEVILLE",,49.060077,6.154155,,,0,
HOTELVI2,5010,"HOTELDEVILLE",,49.060039,6.154227,,,0,
HSCHUMA1,903,"HOPITALSCHUMAN",,49.123286,6.242129,,,0,
HSCHUMA2,904,"HOPITALSCHUMAN",,49.123709,6.242434,,,0,
HTMAGNY1,311,"HAUTS-DE-MAGNY",,49.074131,6.190759,,,0,
HTMAGNY2,585,"HAUTS-DE-MAGNY",,49.074087,6.190827,,,0,
HTRHELE1,56,"HAUT-RHELE",,49.099066,6.132326,,,0,
HTRHELE2,47,"HAUT-RHELE",,49.099083,6.132364,,,0,
IKEA1,641,"IKEA",,49.151735,6.189134,,,0,
IKEA2,642,"IKEA",,49.151769,6.188096,,,0,
INTJOBA1,456,"INTENDANTSJOBA",,49.140476,6.165982,,,0,
INTJOBA2,443,"INTENDANTSJOBA",,49.141590,6.165230,,,0,
JACINTH1,378,"JACINTHES",,49.123956,6.225906,,,0,
JACINTH2,437,"JACINTHES",,49.123890,6.226270,,,0,
JEANNED1,5106,"JEANNED'ARC",,49.089281,6.153389,,,0,
JEANNED2,5524,"JEANNED'ARC",,49.089642,6.153691,,,0,
JERUSAL1,532,"JERUSALEM",,49.091728,6.167170,,,0,
JERUSAL2,531,"JERUSALEM",,49.091910,6.167250,,,0,
JFERRAT1,867,"JEANFERRAT",,49.077520,6.080706,,,0,
JFERRAT2,866,"JEANFERRAT",,49.078385,6.081764,,,0,
JLAURAI1,648,"JEANLAURAIN",,49.153155,6.139950,,,0,
JLAURAI2,647,"JEANLAURAIN",,49.153314,6.139920,,,0,
JMICHEL1,467,"JULESMICHELET",,49.107634,6.227988,,,0,place_JMICH
JMICHEL2,521,"JULESMICHELET",,49.107319,6.228185,,,0,place_JMICH
JOB01,6050,"INTENDANTSJOBA",,49.141569,6.165333,,,0,
JOB02,6055,"INTENDANTSJOBA",,49.141186,6.165521,,,0,
JOSEPH1,5025,"CROIXSTJOSEPH",,49.058975,6.158887,,,0,
JOSEPH2,5012,"CROIXSTJOSEPH",,49.058990,6.159201,,,0,
JOUSSE1,494,"JOUSSE",,49.123025,6.206269,,,0,
JOUSSE2,481,"JOUSSE",,49.122933,6.206892,,,0,
JPJEAN1,491,"J.P.JEAN",,49.125797,6.217510,,,0,
JPJEAN2,484,"J.P.JEAN",,49.125759,6.217174,,,0,
JUGAN1,493,"JUGAN",,49.122481,6.212212,,,0,
JUGAN2,482,"JUGAN",,49.122370,6.213373,,,0,
JUIN1,392,"JUIN",,49.118136,6.189842,,,0,
JUIN2,364,"JUIN",,49.118409,6.189948,,,0,
JUNGLIN1,859,"JUNGLING",,49.148516,6.152681,,,0,
JUNGLIN2,858,"JUNGLING",,49.148392,6.152380,,,0,
JURA1,386,"JURA",,49.118481,6.200633,,,0,
JURA2,370,"JURA",,49.118479,6.200509,,,0,
JURY1,979,"JURY",,49.069560,6.253290,,,0,
JURY2,969,"JURY",,49.069640,6.253580,,,0,
JUSSYSR1,231,"JUSSY-STE-RUFFINE",,49.105080,6.089318,,,0,
JUSTICE1,719,"JUSTICE",,49.166549,6.038358,,,0,
JUSTICE2,7190,"JUSTICE",,49.166546,6.038340,,,0,
LACRETL1,28,"LACRETELLE",,49.112745,6.185069,,,0,
LACRETL2,6,"LACRETELLE",,49.113428,6.185961,,,0,
LACROIX1,329,"LACROIX",,49.129037,6.130390,,,0,
LADAME1,544,"LADAME",,49.098943,6.243364,,,0,
LADAME2,541,"LADAME",,49.098572,6.243959,,,0,
LADONCH1,442,"LADONCHAMPS",,49.154328,6.153073,,,0,
LADONCH2,441,"LADONCHAMPS",,49.154064,6.152506,,,0,
LAFAYET1,112,"LAFAYETTE",,49.107800,6.172740,,,0,
LAFAYET2,91,"LAFAYETTE",,49.108030,6.172980,,,0,
LAMAXE1,623,"LAMAXE",,49.168601,6.189448,,,0,
LAMAXE2,621,"LAMAXE",,49.168728,6.189421,,,0,
LANCEUM1,972,"LANCEUMONT",,49.053990,6.275650,,,0,
LANCEUM2,988,"LANCEUMONT",,49.054228,6.275283,,,0,
LAQUENY1,794,"LAQUENEXY",,49.078280,6.315940,,,0,
LAQUENY2,817,"LAQUENEXY",,49.078440,6.315411,,,0,
LARDEME1,220,"LARDEMELLE",,49.123808,6.149309,,,0,
LARDEME2,557,"LARDEMELLE",,49.124130,6.149947,,,0,
LARGANT1,5030,"LARGANTIER",,49.062854,6.146246,,,0,
LARGANT2,5006,"LARGANTIER",,49.062189,6.146438,,,0,
LASSAUX1,736,"LASSAUX",,49.116189,6.097919,,,0,
LASSAUX2,718,"LASSAUX",,49.116286,6.097992,,,0,
LAUVALL1,951,"LAUVALLIERES",,49.124040,6.260030,,,0,
LAUVALL2,952,"LAUVALLIERES",,49.124030,6.260010,,,0,
LAVANDI1,959,"LAVANDIERES",,49.148355,6.124134,,,0,
LAVANDI2,960,"LAVANDIERES",,49.148355,6.124134,,,0,
LAVOIR1,137,"LAVOIR",,49.097385,6.174626,,,0,
LAVOIR2,243,"LAVOIR",,49.096835,6.175178,,,0,
LECLERC1,211,"LECLERC",,49.111108,6.130608,,,0,
LECLERC2,272,"LECLERC",,49.110796,6.129704,,,0,
LEG01,6170,"HOPITALLEGOUEST",,49.111705,6.192059,,,0,
LEG02,6175,"HOPITALLEGOUEST",,49.111845,6.192939,,,0,
LELAC1,545,"LELAC",,49.096410,6.238379,,,0,
LEMOYNE1,412,"LEMOYNE",,49.131490,6.156323,,,0,
LEMOYNE2,397,"LEMOYNE",,49.131289,6.156678,,,0,
LEMUD01,258,"LEMUD",,49.104530,6.180832,,,0,
LEMUD02,233,"LEMUD",,49.104600,6.180372,,,0,
LEPATIS1,635,"LEPATIS",,49.156248,6.140034,,,0,
LESCLOS1,5032,"LESCLOS",,49.073839,6.147819,,,0,
LESCLOS2,5004,"LESCLOS",,49.072923,6.148046,,,0,
LESSY1,788,"LESSY",,49.120911,6.094850,,,0,
LESSY2,716,"LESSY",,49.120919,6.094679,,,0,
LIBERAT1,703,"LIBERATION",,49.061254,6.118142,,,0,
LIBERAT2,710,"LIBERATION",,49.061254,6.117849,,,0,
LIBERTE1,282,"LIBERTE",,49.107419,6.116081,,,0,
LIBERTE2,274,"LIBERTE",,49.107597,6.116957,,,0,
LILAS1,3007,"LILAS",,49.095588,6.143667,,,0,
LILAS2,3000,"LILAS",,49.095687,6.143521,,,0,
LIN01,6330,"LINIERES",,49.096509,6.226120,,,0,
LIN02,6335,"LINIERES",,49.096509,6.226118,,,0,
LITALDU1,61,"LITALDUS-HOTELDEVILLE",,49.099976,6.152631,,,0,
LITALDU2,42,"LITALDUS-HOTELDEVILLE",,49.099441,6.151063,,,0,
LMOULIN1,434,"LESMOULINS",,49.129950,6.237470,,,0,
LMOULIN2,433,"LESMOULINS",,49.130000,6.237770,,,0,
LOGES1,516,"LOGES",,49.098781,6.159231,,,0,
LOGES2,510,"LOGES",,49.099049,6.158200,,,0,
LONGEVI1,212,"LONGEVILLE",,49.112409,6.134323,,,0,
LONGEVI2,271,"LONGEVILLE",,49.112725,6.135222,,,0,
LORIENT1,379,"LORIENT",,49.122467,6.224792,,,0,
LORIENT2,377,"LORIENT",,49.122632,6.225374,,,0,
LORRAIN1,84,"LORRAINE",,49.102709,6.109166,,,0,
LORRAIN2,818,"LORRAINE",,49.101199,6.108043,,,0,
LORRYGR1,724,"LORRYGRANDRUE",,49.141782,6.118452,,,0,
LORRYGR2,731,"LORRYGRANDRUE",,49.141784,6.118315,,,0,
LOTHAIR1,256,"LOTHAIRE",,49.099271,6.180423,,,0,place_LOTHR
LOTHAIR2,235,"LOTHAIRE",,49.099576,6.180356,,,0,place_LOTHR
LOTHAIR3,692,"LOTHAIRE",,49.100328,6.180862,,,0,place_LOTHR
LOTHAIR4,693,"LOTHAIRE",,49.100333,6.181056,,,0,place_LOTHR
LOTINDU1,78,"LOTISSEMENTINDUSTRIEL",,49.089587,6.124199,,,0,
LOTINDU2,74,"LOTISSEMENTINDUSTRIEL",,49.089741,6.124332,,,0,
LOTISSE1,704,"LOTISSEMENT",,49.064045,6.116576,,,0,
LOTISSE2,709,"LOTISSEMENT",,49.063500,6.116390,,,0,
LUETTE1,850,"LUETTE",,49.085306,6.148632,,,0,
LUETTE2,851,"LUETTE",,49.085376,6.148345,,,0,
LUX01,6110,"SQUAREDULUXEMBOURG",,49.121245,6.168918,,,0,place_SQLUX
LUX02,6115,"SQUAREDULUXEMBOURG",,49.121246,6.168921,,,0,place_SQLUX
LYAUT104,104,"LYAUTEY",,49.093500,6.167980,,,0,
LYAUT656,656,"LYAUTEY",,49.093940,6.168179,,,0,
LYAUTE99,99,"LYAUTEY",,49.093910,6.167520,,,0,
MAGNYBO1,246,"MAGNY-AU-BOIS",,49.075206,6.194991,,,0,
MAGNYBO2,581,"MAGNY-AU-BOIS",,49.075410,6.195379,,,0,
MAHIRE1,779,"MAHIRE",,49.050101,6.184511,,,0,
MALMAIS1,772,"MALMAISON",,49.124955,6.017008,,,0,
MALMAIS2,768,"MALMAISON",,49.125027,6.016890,,,0,
MANGENO1,489,"MYMANGENOT",,49.127813,6.225469,,,0,
MANGENO2,486,"MYMANGENOT",,49.127912,6.225781,,,0,
MANGIN1,109,"MANGIN",,49.102880,6.164599,,,0,
MANGIN2,94,"MANGIN",,49.102570,6.164369,,,0,
MARCONI1,63,"MARCONI",,49.100588,6.217791,,,0,
MARCONI2,40,"MARCONI",,49.100592,6.217981,,,0,
MARCSAN1,927,"MARCSANGNIER",,49.089355,6.159382,,,0,
MARCSAN2,930,"MARCSANGNIER",,49.089247,6.159298,,,0,
MARGUER1,547,"MARGUERITE",,49.088292,6.159708,,,0,
MARGUER2,540,"MARGUERITE",,49.088491,6.159318,,,0,
MARIEUL1,843,"MARIEULLES",,48.998825,6.100303,,,0,
MARLY1,5019,"MARLY",,49.061007,6.166711,,,0,
MARNE1,304,"MARNE",,49.126698,6.154243,,,0,
MARNE2,222,"MARNE",,49.126760,6.154310,,,0,
MARRONN1,603,"MARRONNIERS",,49.134239,6.215401,,,0,
MARRONN2,5045,"MARRONNIERS",,49.134319,6.215283,,,0,
MASLIEV1,748,"MASAULIEVRE",,49.130196,6.275761,,,0,
MASLIEV2,861,"MASAULIEVRE",,49.130289,6.275718,,,0,
MAT01,6370,"MATERNITE",,49.082090,6.238732,,,0,
MAT02,6375,"MATERNITE",,49.082161,6.239011,,,0,
MAUJEAN1,383,"MAUJEAN",,49.120179,6.214947,,,0,
MAUJEAN2,373,"MAUJEAN",,49.120197,6.214533,,,0,
MAZELLE1,888,"MAZELLE",,49.114125,6.182420,,,0,
MAZELLE2,198,"MAZELLE",,49.114951,6.184847,,,0,
MECLEUV1,974,"MECLEUVES",,49.042400,6.268120,,,0,
MECLEUV2,986,"MECLEUVES",,49.042250,6.268461,,,0,
MELEZES1,607,"MELEZES",,49.128165,6.203304,,,0,
MELEZES2,599,"MELEZES",,49.127850,6.203633,,,0,
MER01,6360,"HOPITALMERCY",,49.084587,6.242098,,,0,place_HMERC
MER02,6365,"HOPITALMERCY",,49.084587,6.242099,,,0,place_HMERC
MERMOZ1,360,"MERMOZ",,49.093544,6.151580,,,0,
MERMOZ2,355,"MERMOZ",,49.093986,6.152085,,,0,
METMAN1,384,"METMAN",,49.120046,6.208878,,,0,
METMAN2,372,"METMAN",,49.120111,6.209556,,,0,
METZANI1,682,"METZANINE",,49.107053,6.231395,,,0,
METZANI2,681,"METZANINE",,49.106729,6.231413,,,0,
MEURISS1,3005,"MEURISSE",,49.101675,6.155199,,,0,
MEURISS2,3012,"MEURISSE",,49.102196,6.156036,,,0,
MEYVIGN1,563,"MEYLESVIGNES",,49.133960,6.237639,,,0,
MIC01,6260,"JULESMICHELET",,49.107653,6.228691,,,0,place_JMICH
MIC02,6265,"JULESMICHELET",,49.107653,6.228691,,,0,place_JMICH
MICHANG1,5017,"MICHELANGE",,49.059365,6.169093,,,0,
MIGETTE1,213,"MIGETTE",,49.114136,6.139048,,,0,
MIGETTE2,270,"MIGETTE",,49.113966,6.138610,,,0,
MIRABEL1,422,"MIRABELLES",,49.131199,6.145880,,,0,
MIRABEL2,416,"MIRABELLES",,49.130667,6.145525,,,0,
MNVE1,380,"MAISONNEUVE",,49.110280,6.091201,,,0,
MOMENE1,328,"MOMENE",,49.129188,6.127607,,,0,
MONTAG01,804,"ST-PRIVAT-LA-MONTAGNE",,49.184845,6.044487,,,0,
MORLOT1,160,"MORLOT",,49.141124,6.150791,,,0,
MORLOT2,158,"MORLOT",,49.141084,6.150367,,,0,
MOULI275,275,"MOULINS",,49.106477,6.111286,,,0,place_MOULI
MOULI281,281,"MOULINS",,49.106440,6.111200,,,0,place_MOULI
MOULIN86,86,"MOULINS",,49.105475,6.110561,,,0,place_MOULI
MOULMAI1,85,"MOULINSMAIRIE",,49.106994,6.106338,,,0,
MTPRIVA1,503,"MONTIGNYST-PRIVAT",,49.084587,6.154709,,,0,
MUSE01,151,"MUSE",,49.105954,6.181635,,,0,
MUSE02,152,"MUSE",,49.105745,6.181559,,,0,
NATION1,62,"NATION",,49.101364,6.154804,,,0,
NATION2,41,"NATION",,49.101308,6.154675,,,0,
NJUNG1,411,"NICOLASJUNG",,49.133680,6.152525,,,0,
NJUNG2,398,"NICOLASJUNG",,49.133334,6.153096,,,0,
NONNETI1,551,"NONNETIERS",,49.114700,6.235634,,,0,
NONNETI2,550,"NONNETIERS",,49.114745,6.237012,,,0,
NOUILLO1,790,"NOUILLONS",,49.111846,6.097380,,,0,
NOUILLO2,785,"NOUILLONS",,49.112055,6.097330,,,0,
NOUILLY1,751,"NOUILLYCENTRE",,49.136056,6.258509,,,0,
NOUILLY2,754,"NOUILLYCENTRE",,49.136056,6.258509,,,0,
OBELLI01,245,"OBELLIANE",,49.076040,6.192849,,,0,
OBELLI02,582,"OBELLIANE",,49.076140,6.192630,,,0,
OBERL183,183,"OBERLING",,49.103385,6.202415,,,0,
OBERL193,193,"OBERLING",,49.103229,6.202711,,,0,
OBERL653,653,"OBERLING",,49.103150,6.204709,,,0,
OBERL668,668,"OBERLING",,49.103156,6.204046,,,0,
OEILLET1,458,"OEILLETS",,49.125193,6.230550,,,0,
ORLY1,871,"ORLY",,49.075620,6.116550,,,0,
ORLY2,872,"ORLY",,49.075870,6.116931,,,0,
PALAISS1,218,"PALAISDESSPORTS",,49.111121,6.161525,,,0,
PALAISS2,203,"PALAISDESSPORTS",,49.111233,6.161236,,,0,
PAQUERE1,120,"PAQUERETTES",,49.094400,6.123851,,,0,
PAQUERE2,119,"PAQUERETTES",,49.094430,6.123770,,,0,
PAQUET1,163,"PAQUET",,49.135059,6.156782,,,0,
PAQUET2,155,"PAQUET",,49.135083,6.156760,,,0,
PARAIGE1,393,"PARAIGES",,49.117232,6.179856,,,0,
PASSERE1,995,"LAPASSERELLE",,49.075067,6.256375,,,0,
PASSERE2,996,"LAPASSERELLE",,49.074881,6.256506,,,0,
PASSOTE1,227,"PASSOTTE",,49.093074,6.239673,,,0,
PASSOTE2,226,"PASSOTTE",,49.092848,6.239898,,,0,
PATROTT1,164,"PATROTTE",,49.134585,6.161235,,,0,
PATROTT2,154,"PATROTTE",,49.134796,6.161172,,,0,
PELTRE1,965,"PELTREGARE",,49.074330,6.222700,,,0,
PELTRE2,983,"PELTREGARE",,49.074380,6.222640,,,0,
PEM910,910,"POLEMULTIMODAL",,49.107110,6.177470,,,0,
PEM911,911,"POLEMULTIMODAL",,49.107070,6.177387,,,0,
PEM912,912,"POLEMULTIMODAL",,49.107130,6.177520,,,0,
PEM913,913,"POLEMULTIMODAL",,49.106940,6.177100,,,0,
PEM914,914,"POLEMULTIMODAL",,49.107070,6.177387,,,0,
PEM916,916,"POLEMULTIMODAL",,49.107110,6.177470,,,0,
PENSEES1,836,"PENSEES",,49.134659,6.273620,,,0,
PENSEES2,835,"PENSEES",,49.134718,6.273891,,,0,
PEPINIE1,216,"PEPINIERES",,49.114076,6.154931,,,0,
PEPINIE2,205,"PEPINIERES",,49.114283,6.154505,,,0,
PEUMONT1,967,"PEUMONT",,49.076700,6.232070,,,0,
PEUMONT2,981,"PEUMONT",,49.076810,6.232140,,,0,
PEUPLIE1,508,"PEUPLIERS",,49.104668,6.208690,,,0,
PEUPLIE2,500,"PEUPLIERS",,49.105085,6.210269,,,0,
PIERNE01,257,"PIERNE",,49.102273,6.179863,,,0,
PIERNE02,234,"PIERNE",,49.102558,6.179825,,,0,
PIERRET1,625,"PIERRET",,49.164089,6.188698,,,0,
PIERRET2,619,"PIERRET",,49.163588,6.188512,,,0,
PINOTSM1,750,"PINOTSMELES",,49.134469,6.270569,,,0,
PINOTSM2,755,"PINOTSMELES",,49.134438,6.271576,,,0,
PINS01,604,"PINS",,49.132392,6.215935,,,0,
PINS02,5044,"PINS",,49.132405,6.215813,,,0,
PISCINE1,241,"PISCINEOLYMPIQUE",,49.100580,6.186501,,,0,
PISCINE2,240,"PISCINEOLYMPIQUE",,49.100489,6.185619,,,0,
PIVOINE1,174,"PIVOINES",,49.125861,6.227397,,,0,
PJOLY1,646,"PAULJOLY",,49.063946,6.148353,,,0,
PJOLY2,645,"PAULJOLY",,49.063956,6.148349,,,0,
PLACEPU1,739,"PLACEPUBLIQUE",,49.154572,6.118160,,,0,
PLACEPU2,744,"PLACEPUBLIQUE",,49.154617,6.118041,,,0,
PLAINE1,248,"LAPLAINE",,49.078720,6.189810,,,0,
PLAINE2,579,"LAPLAINE",,49.078680,6.189760,,,0,
PLAPEVI1,327,"PLAPPEVILLE",,49.130529,6.124464,,,0,
PLAQUET1,722,"LESPLAQUETTES",,49.169047,6.051426,,,0,
PLAQUET2,733,"LESPLAQUETTES",,49.169204,6.051248,,,0,
PLARMES2,145,"PLACED'ARMES",,49.119478,6.175437,,,0,place_ARMES
PLARMES4,1004,"PLACED'ARMES",,49.119340,6.175570,,,0,place_ARMES
PLATEAU1,260,"PLATEAU",,49.082390,6.184219,,,0,
PLATEAU2,261,"PLATEAU",,49.081550,6.185229,,,0,
PLCHAM01,1020,"PLACEDECHAMBRE",,49.120317,6.173846,,,0,
PLFRANC1,457,"PLACEDEFRANCE",,49.156261,6.153043,,,0,
PLGAULL1,5024,"PLACEDEGAULLE",,49.060938,6.162506,,,0,
PLGAULL2,5013,"PLACEDEGAULLE",,49.060080,6.162630,,,0,
POINCAR1,879,"POINCARE",,49.116424,6.168559,,,0,
POINCAR2,880,"POINCARE",,49.117649,6.169115,,,0,
POM01,6150,"CENTREPOMPIDOUMETZ",,49.109098,6.180880,,,0,place_CPOMP
POM02,6155,"CENTREPOMPIDOUMETZ",,49.109098,6.180879,,,0,place_CPOMP
POMMERA1,5070,"LAPOMMERAIE",,49.033478,6.162407,,,0,
POMMERA2,5074,"LAPOMMERAIE",,49.033591,6.161991,,,0,
POMPIDO1,797,"CENTREPOMPIDOUMETZ",,49.108401,6.180385,,,0,place_CPOMP
POMPIDO2,796,"CENTREPOMPIDOUMETZ",,49.108318,6.180437,,,0,place_CPOMP
PON01,6090,"PONTIFFROY",,49.127140,6.174876,,,0,place_PONTI
PON02,6095,"PONTIFFROY",,49.127138,6.174877,,,0,place_PONTI
PONSARD1,526,"PONSARD",,49.089591,6.147259,,,0,
PONSARD2,358,"PONSARD",,49.089631,6.147179,,,0,
PONTIFF1,169,"PONTIFFROY",,49.127360,6.175441,,,0,place_PONTI
PONTIFF2,149,"PONTIFFROY",,49.127471,6.175816,,,0,place_PONTI
PONTROU1,664,"PONTROUGE",,49.114821,6.189005,,,0,
PONTROU2,665,"PONTROUGE",,49.114710,6.188867,,,0,
PONTVER1,288,"PONTDEVERDUN",,49.119032,6.144237,,,0,
PONTVER2,268,"PONTDEVERDUN",,49.119567,6.144533,,,0,
PORTMZ1,629,"PORTDEMETZ",,49.137311,6.180807,,,0,
PORTMZ2,615,"PORTDEMETZ",,49.137572,6.181031,,,0,
POSTEDF1,815,"POSTEEDF",,49.151940,6.213803,,,0,
POSTEDF2,816,"POSTEEDF",,49.151940,6.213803,,,0,
POTIERS1,674,"POTIERSD'ETAIN",,49.115719,6.243662,,,0,
POTIERS2,432,"POTIERSD'ETAIN",,49.116148,6.243641,,,0,
POUILLY1,782,"POUILLY",,49.049818,6.188396,,,0,
POULMAI1,856,"POULMAIRE",,49.151113,6.165887,,,0,
POULMAI2,740,"POULMAIRE",,49.151153,6.166943,,,0,
POURNOY1,5078,"POURNOY-LA-CHETIVE",,49.020422,6.155370,,,0,
POURNOY2,5077,"POURNOY-LA-CHETIVE",,49.020792,6.155158,,,0,
PREFECT1,1000,"PREFECTURE",,49.121710,6.174370,,,0,
PREFECT2,438,"PREFECTURE",,49.121305,6.175270,,,0,
PREFECT3,435,"PREFECTURE",,49.121590,6.174796,,,0,
PRENET1,418,"PRENET",,49.081200,6.308091,,,0,
PRENET2,419,"PRENET",,49.081120,6.308259,,,0,
PRESJAC1,324,"PRESST-JACQUES",,49.134312,6.130838,,,0,
PRESSOI1,837,"PRESSOIR",,49.135157,6.256977,,,0,
PRESSOI2,834,"PRESSOIR",,49.135232,6.257092,,,0,
PREVILL1,295,"PREVILLE",,49.102224,6.104457,,,0,
PREVILL2,954,"PREVILLE",,49.102743,6.104480,,,0,
PREVOTE1,5361,"PREVOTE",,49.092873,6.156398,,,0,
PREVOTE2,5354,"PREVOTE",,49.091612,6.155352,,,0,
PRILLE1,263,"ENPRILLE",,49.109541,6.125934,,,0,
PRILLE2,262,"ENPRILLE",,49.109378,6.125309,,,0,
PRO01,6210,"PROVENCE",,49.113262,6.216811,,,0,place_PROVE
PRO02,6215,"PROVENCE",,49.113265,6.216819,,,0,place_PROVE
PROVENC1,23,"PROVENCE",,49.112835,6.215728,,,0,place_PROVE
PROVENC2,11,"PROVENCE",,49.112796,6.215883,,,0,place_PROVE
PTCOEUR1,832,"PETITCOEUR",,49.166107,6.040384,,,0,
PTCOEUR2,8320,"PETITCOEUR",,49.166103,6.040458,,,0,
PTICLOU1,589,"PETITCLOU",,49.076551,6.184011,,,0,
PTICLOU2,306,"PETITCLOU",,49.074774,6.184282,,,0,
PTIJURY1,978,"PETITJURY",,49.067090,6.245551,,,0,
PTIJURY2,970,"PETITJURY",,49.066950,6.245420,,,0,
PTSOEUR1,385,"PETITESSOEURS",,49.119000,6.204281,,,0,
PTSOEUR2,371,"PETITESSOEURS",,49.119007,6.204234,,,0,
PUYMAIG1,196,"PUYMAIGRE",,49.107034,6.194725,,,0,
QUOITY1,787,"LEQUOITY",,49.123278,6.094879,,,0,
RAPLEVY1,391,"RAPHAELLEVY",,49.120040,6.190601,,,0,
RAPLEVY2,365,"RAPHAELLEVY",,49.120317,6.190744,,,0,
RBOULAY1,863,"ROUTEDEBOULAY",,49.126685,6.268260,,,0,
RBOULAY2,862,"ROUTEDEBOULAY",,49.126497,6.267760,,,0,
REP01,6120,"REPUBLIQUE",,49.114995,6.173385,,,0,place_REPUB
REP02,6125,"REPUBLIQUE",,49.115833,6.172877,,,0,place_REPUB
REPU5051,5051,"REPUBLIQUE",,49.114485,6.172077,,,0,place_REPUB
REPU5052,5052,"REPUBLIQUE",,49.114320,6.172450,,,0,place_REPUB
REPUB123,123,"REPUBLIQUE",,49.115614,6.173439,,,0,place_REPUB
REPUB436,436,"REPUBLIQUE",,49.114500,6.172990,,,0,place_REPUB
REPUBL01,1,"REPUBLIQUE",,49.115245,6.173645,,,0,place_REPUB
REPUBL88,88,"REPUBLIQUE",,49.115436,6.174237,,,0,place_REPUB
RIMPORT1,170,"RIMPORT",,49.124096,6.181054,,,0,
RIMPORT2,440,"RIMPORT",,49.124458,6.182114,,,0,
RN301,561,"RN3",,49.109705,6.091113,,,0,
RN302,560,"RN3",,49.109659,6.091091,,,0,
ROC01,6080,"P+RROCHAMBEAU",,49.129623,6.170204,,,0,place_ROCHA
ROC02,6085,"P+RROCHAMBEAU",,49.129622,6.170206,,,0,place_ROCHA
ROCHAMB1,168,"P+RROCHAMBEAU",,49.129429,6.170241,,,0,place_ROCHA
ROCHAMB2,150,"P+RROCHAMBEAU",,49.129526,6.170049,,,0,place_ROCHA
ROEDERE1,514,"ROEDERER",,49.097990,6.202697,,,0,
ROEDERE2,513,"ROEDERER",,49.098707,6.203577,,,0,
ROGET1,477,"ROGET",,49.149171,6.169056,,,0,
ROGET2,498,"ROGET",,49.149287,6.169623,,,0,
ROI01,6130,"ROIGEORGE",,49.110651,6.171616,,,0,place_ROIGE
ROI02,6135,"ROIGEORGE",,49.110752,6.171479,,,0,place_ROIGE
ROIGE142,142,"ROIGEORGE",,49.111048,6.172034,,,0,place_ROIGE
ROIGE352,352,"ROIGEORGE",,49.109801,6.170433,,,0,place_ROIGE
ROIGE694,694,"ROIGEORGE",,49.110789,6.171108,,,0,place_ROIGE
ROIGE695,695,"ROIGEORGE",,49.110789,6.171108,,,0,place_ROIGE
ROIGEO34,34,"ROIGEORGE",,49.110369,6.169100,,,0,place_ROIGE
ROIGEO68,68,"ROIGEORGE",,49.109940,6.170550,,,0,place_ROIGE
ROIGEO89,89,"ROIGEORGE",,49.110965,6.171984,,,0,place_ROIGE
ROOSEVE1,247,"ROOSEVELT",,49.077240,6.193779,,,0,
ROOSEVE2,580,"ROOSEVELT",,49.077030,6.194050,,,0,
ROSEAUX1,587,"ROSEAUX",,49.071276,6.185710,,,0,
ROSEAUX2,308,"ROSEAUX",,49.071263,6.186714,,,0,
ROSEGON1,672,"ROSEGONTHIER",,49.103095,6.243447,,,0,
ROSEGON2,671,"ROSEGONTHIER",,49.103080,6.243479,,,0,
ROSEMAR1,655,"ROSEMARCUS",,49.147417,6.148651,,,0,
ROSEMAR2,654,"ROSEMARCUS",,49.147379,6.148470,,,0,
ROTONDE1,77,"ROTONDE",,49.087826,6.118257,,,0,
ROTONDE2,75,"ROTONDE",,49.087253,6.117156,,,0,
ROU01,6040,"EMILEROUX",,49.144727,6.166327,,,0,
ROU02,6045,"EMILEROUX",,49.144727,6.166327,,,0,
ROUSSEL1,407,"ROUSSEL",,49.135555,6.140031,,,0,
ROUSSEL2,402,"ROUSSEL",,49.135449,6.139462,,,0,
RSCHUMA1,814,"SCHUMAN",,49.110626,6.112126,,,0,
RSCHUMA2,811,"SCHUMAN",,49.110858,6.111853,,,0,
RTBORNY1,662,"ROUTEDEBORNY",,49.115019,6.192011,,,0,
RTBORNY2,663,"ROUTEDEBORNY",,49.115028,6.192803,,,0,
RUCHER1,639,"RUCHER",,49.144803,6.147904,,,0,
RUCHER2,631,"RUCHER",,49.145003,6.147890,,,0,
RUEDARS1,774,"RUED'ARS",,49.112024,6.028842,,,0,
RUEDARS2,778,"RUED'ARS",,49.111974,6.028865,,,0,
RUEECO01,805,"RUEDESECOLES",,49.188930,6.038179,,,0,
RUEECO02,803,"RUEDESECOLES",,49.189010,6.038159,,,0,
RUELLCH1,675,"RUELLECHENEAU",,49.115068,6.196979,,,0,
RUELLCH2,676,"RUELLECHENEAU",,49.115101,6.197865,,,0,
RUEMETZ1,738,"RUEDEMETZ",,49.155754,6.113134,,,0,
RUEMETZ2,745,"RUEDEMETZ",,49.155763,6.113093,,,0,
RUEMOUL1,666,"RUEDUMOULIN",,49.155819,6.105067,,,0,
RUISSEA1,742,"RUISSEAU",,49.151049,6.158635,,,0,
RUISSEA2,743,"RUISSEAU",,49.151083,6.158612,,,0,
SABLIER1,351,"SABLIERES",,49.086445,6.163728,,,0,
SABLIER2,534,"SABLIERES",,49.086268,6.163136,,,0,
SALETTE1,760,"SALETTE",,49.152886,6.246759,,,0,
SANSONN1,409,"SANSONNET",,49.136369,6.147307,,,0,
SANSONN2,400,"SANSONNET",,49.136475,6.147045,,,0,
SARRE1,677,"SARRE",,49.114594,6.231023,,,0,
SARRE2,678,"SARRE",,49.114650,6.233648,,,0,
SAU01,6280,"SAULCY",,49.120733,6.164674,,,0,
SAU02,6285,"SAULCY",,49.120430,6.164552,,,0,
SAULES1,638,"SAULES",,49.147632,6.152458,,,0,
SAULES2,632,"SAULES",,49.147642,6.152451,,,0,
SAULNOI1,490,"SAULNOIS",,49.126479,6.221821,,,0,
SAULNOI2,485,"SAULNOIS",,49.126514,6.222033,,,0,
SAULNYC1,737,"SAULNYCENTRE",,49.158620,6.106141,,,0,
SAVOIE1,54,"SAVOIE",,49.096142,6.127414,,,0,
SAVOIE2,49,"SAVOIE",,49.096056,6.127234,,,0,
SCHAZEL1,717,"SCY-CHAZELLES",,49.114110,6.116820,,,0,
SCHWALB1,825,"SCHWALBACH",,49.079280,6.065761,,,0,
SCHWALB2,823,"SCHWALBACH",,49.079330,6.065510,,,0,
SCYBAS1,283,"SCYBAS",,49.108550,6.121820,,,0,
SCYBAS2,273,"SCYBAS",,49.108430,6.120870,,,0,
SEBASTO1,299,"SEBASTOPOL",,49.107885,6.237844,,,0,
SEBASTO2,542,"SEBASTOPOL",,49.107638,6.238711,,,0,
SEI01,6160,"SEILLE",,49.111741,6.185901,,,0,place_SEILL
SEI02,6165,"SEILLE",,49.111647,6.185626,,,0,place_SEILL
SEILLE1,5,"SEILLE",,49.111295,6.186127,,,0,place_SEILL
SEILLE2,177,"SEILLE",,49.111432,6.186076,,,0,place_SEILL
SELLIER1,447,"SELLIERS",,49.114191,6.247357,,,0,
SELLIER2,446,"SELLIERS",,49.114048,6.247509,,,0,
SEMINAI1,107,"SEMINAIRE",,49.097949,6.160483,,,0,
SEMINAI2,96,"SEMINAIRE",,49.097280,6.159970,,,0,
SERPEN01,1024,"RUESERPENOISE",,49.117164,6.175487,,,0,
SERRET1,279,"SERRET",,49.109991,6.099552,,,0,
SERRET2,277,"SERRET",,49.109900,6.099858,,,0,
SERRURR1,673,"SERRURIERS",,49.118262,6.240132,,,0,
SERRURR2,424,"SERRURIERS",,49.118611,6.240000,,,0,
SEULHOT1,574,"SEULHOTTE",,49.101316,6.208325,,,0,
SEULHOT2,572,"SEULHOTTE",,49.101458,6.208595,,,0,
SIGISBE1,228,"SIGISBERT",,49.122261,6.149006,,,0,
SIGISBE2,219,"SIGISBERT",,49.122458,6.148739,,,0,
SILOS1,628,"LESSILOS",,49.140359,6.186424,,,0,
SILOS2,616,"LESSILOS",,49.140745,6.187161,,,0,
SIMMI357,357,"SIMMINGER",,49.090304,6.144877,,,0,
SIMMI527,527,"SIMMINGER",,49.090231,6.144980,,,0,
SIMMI689,689,"SIMMINGER",,49.089885,6.144612,,,0,
SIMMI690,690,"SIMMINGER",,49.089972,6.144756,,,0,
SLIVIER1,139,"ST-LIVIER",,49.100236,6.175472,,,0,
SLIVIER2,128,"ST-LIVIER",,49.101033,6.175172,,,0,
SMARTIN1,289,"ST-MARTIN",,49.121573,6.150804,,,0,
SMARTIN2,267,"ST-MARTIN",,49.121714,6.151256,,,0,
SOLIDAR1,298,"SOLIDARITE",,49.108048,6.243106,,,0,
SOLIDAR2,509,"SOLIDARITE",,49.107803,6.243051,,,0,
SORBIER1,5031,"LESSORBIERS",,49.068535,6.146847,,,0,
SORBIER2,5005,"LESSORBIERS",,49.068926,6.146890,,,0,
SQLUX116,116,"SQUAREDULUXEMBOURG",,49.121211,6.168953,,,0,place_SQLUX
SQLUX118,118,"SQUAREDULUXEMBOURG",,49.121233,6.168829,,,0,place_SQLUX
SQLUX122,122,"SQUAREDULUXEMBOURG",,49.121399,6.168131,,,0,place_SQLUX
SQLUX264,264,"SQUAREDULUXEMBOURG",,49.121440,6.167969,,,0,place_SQLUX
STADE2,325,"STADE",,49.131649,6.130784,,,0,
STAGATH1,876,"STE-AGATHE",,49.164269,6.153869,,,0,
STAGATH2,8836,"STE-AGATHE",,49.164145,6.153887,,,0,
STANDRE1,106,"ST-ANDRE",,49.096050,6.159085,,,0,
STANDRE2,5097,"ST-ANDRE",,49.095000,6.158130,,,0,
STANDRE3,97,"ST-ANDRE",,49.095161,6.159006,,,0,
STBRICE1,5029,"ST-BRICE",,49.060249,6.150115,,,0,
STBRICE2,5007,"ST-BRICE",,49.060630,6.149240,,,0,
STEXUPE1,931,"ST-EXUPERY",,49.086386,6.154441,,,0,
STEXUPE2,926,"ST-EXUPERY",,49.086575,6.154082,,,0,
STGEORG1,171,"ST-GEORGES",,49.122696,6.178363,,,0,
STGEORG2,439,"ST-GEORGES",,49.122449,6.178004,,,0,
STJEAN01,280,"ST-JEAN",,49.108046,6.104965,,,0,
STJEAN02,276,"ST-JEAN",,49.107761,6.105710,,,0,
STJEGLI1,5049,"ST-JULIENEGLISE",,49.134292,6.202512,,,0,
STJEGLI2,5037,"ST-JULIENEGLISE",,49.134488,6.202701,,,0,
STJFORT1,5066,"ST-JULIENFORT",,49.140795,6.205836,,,0,
STJFORT2,601,"ST-JULIENFORT",,49.141380,6.206611,,,0,
STLADRE1,518,"ST-LADRE",,49.096922,6.154974,,,0,
STLADRE2,517,"ST-LADRE",,49.097128,6.155211,,,0,
STLOUI07,1007,"ST-LOUIS",,49.116690,6.179530,,,0,
STMAXI1,195,"ST-MAXIMIN",,49.105781,6.196741,,,0,
STMAXI2,181,"ST-MAXIMIN",,49.105726,6.196618,,,0,
STNICOL1,31,"ST-NICOLAS",,49.113468,6.178366,,,0,
STNICOL2,3,"ST-NICOLAS",,49.112979,6.177394,,,0,
STOXEY1,387,"STOXEY",,49.120074,6.196174,,,0,
STOXEY2,369,"STOXEY",,49.119177,6.196322,,,0,
STPAUL01,828,"ST-PAUL",,49.083369,6.087056,,,0,
STPAUL02,820,"ST-PAUL",,49.083150,6.086633,,,0,
STQUENT1,59,"ST-QUENTIN",,49.097373,6.144350,,,0,
STQUENT2,507,"ST-QUENTIN",,49.097040,6.143281,,,0,
STREMY1,890,"ST-REMY",,49.173763,6.162021,,,0,
STROCH1,590,"ST-ROCH",,49.079117,6.184032,,,0,
STROCH2,242,"ST-ROCH",,49.078383,6.183834,,,0,
STSIMON1,303,"ST-SIMON",,49.127707,6.151972,,,0,
STSIMON2,223,"ST-SIMON",,49.127468,6.152503,,,0,
SUGNON1,98,"SUGNON",,49.094149,6.163161,,,0,
SUGNON2,105,"SUGNON",,49.094130,6.163420,,,0,
SVICTOR1,60,"ST-VICTOR",,49.098320,6.147441,,,0,
SVICTOR2,43,"ST-VICTOR",,49.097961,6.146272,,,0,
SYMPHON1,285,"SYMPHONIE",,49.104655,6.214243,,,0,place_SYMPH
SYMPHON3,102,"SYMPHONIE",,49.104259,6.215028,,,0,place_SYMPH
TANNERI1,497,"TANNERIES",,49.126892,6.192310,,,0,
TANNERI2,478,"TANNERIES",,49.126966,6.193015,,,0,
TANNEUR1,556,"TANNEURS",,49.119381,6.181936,,,0,
TANNEUR2,363,"TANNEURS",,49.120125,6.184069,,,0,
TARREAU1,973,"LESTARREAUX",,49.043900,6.270610,,,0,
TARREAU2,987,"LESTARREAUX",,49.044075,6.270719,,,0,
TELEGRA1,792,"TELEGRAPHE",,49.146826,6.003117,,,0,
TELEGRA2,770,"TELEGRAPHE",,49.146826,6.003117,,,0,
TEMPLE1,897,"TEMPLE",,49.078820,6.069921,,,0,
TEMPLE2,896,"TEMPLE",,49.079110,6.069737,,,0,
TERRESR1,5050,"TERRESROUGES",,49.129762,6.197286,,,0,
TERRESR2,5036,"TERRESROUGES",,49.129964,6.197548,,,0,
TETEDOR1,1012,"TETED'OR",,49.117314,6.177094,,,0,
THERMES1,780,"THERMES",,49.050293,6.183417,,,0,
TIGNO266,266,"TIGNOMONT",,49.125883,6.159390,,,0,place_TIGNO
TIGNO290,290,"TIGNOMONT",,49.126208,6.159407,,,0,place_TIGNO
TIGNO395,395,"TIGNOMONT",,49.127619,6.160069,,,0,place_TIGNO
TIGNO414,414,"TIGNOMONT",,49.127533,6.160006,,,0,place_TIGNO
TILLEUL1,5039,"TILLEULS",,49.134490,6.207790,,,0,
TILLEUL2,5047,"TILLEULS",,49.134044,6.207506,,,0,
TIVOLI1,345,"TIVOLI",,49.099641,6.189448,,,0,
TIVOLI2,339,"TIVOLI",,49.099666,6.189816,,,0,
TORTUE1,333,"TORTUE",,49.128371,6.148195,,,0,
TORTUE2,224,"TORTUE",,49.128361,6.148446,,,0,
TOURAIN1,82,"TOURAINE",,49.095566,6.138685,,,0,
TOURAIN2,70,"TOURAINE",,49.095125,6.137334,,,0,
TOURNEB1,76,"TOURNEBRIDE",,49.086076,6.112569,,,0,
TOURNEB2,121,"TOURNEBRIDE",,49.085970,6.113350,,,0,
TREIZE1,197,"TREIZE",,49.110096,6.189480,,,0,
VACONS1,548,"VACONS",,49.087466,6.164294,,,0,
VACONS2,539,"VACONS",,49.087485,6.164532,,,0,
VAILLAN1,108,"VAILLANT",,49.100454,6.162568,,,0,
VAILLAN2,95,"VAILLANT",,49.099700,6.161980,,,0,
VALERIA1,586,"VALERIANE",,49.070865,6.188770,,,0,
VALERIA2,225,"VALERIANE",,49.071049,6.192667,,,0,
VALLONS1,980,"LESVALLONS",,49.078400,6.265351,,,0,
VALLONS2,968,"LESVALLONS",,49.077760,6.265101,,,0,
VALMETZ1,714,"VALDEMETZ",,49.093270,6.093405,,,0,
VALMETZ2,715,"VALDEMETZ",,49.093369,6.092531,,,0,
VANDERN1,254,"VANDERNOOT",,49.095763,6.180679,,,0,
VANDERN2,237,"VANDERNOOT",,49.095555,6.180705,,,0,
VANY1,759,"VANY",,49.156509,6.239068,,,0,
VANY2,757,"VANY",,49.156189,6.239552,,,0,
VAUTRIN2,117,"QUAIVAUTRIN",,49.119605,6.171465,,,0,
VAUXMAI1,713,"VAUX",,49.093080,6.080640,,,0,
VCANADI1,976,"VILLAGECANADIEN",,49.056540,6.239320,,,0,
VCANADI2,984,"VILLAGECANADIEN",,49.056185,6.239601,,,0,
VECRIN1,698,"VECRIN",,49.091515,6.266735,,,0,
VECRIN2,699,"VECRIN",,49.091556,6.266926,,,0,
VERDUN1,824,"VERDUN",,49.080128,6.058151,,,0,
VERDUN2,853,"VERDUN",,49.080128,6.058151,,,0,
VERGERS1,684,"VERGERS",,49.102299,6.146406,,,0,
VERGERS2,683,"VERGERS",,49.101906,6.146168,,,0,
VERLAIN1,67,"VERLAINE",,49.108240,6.167981,,,0,
VERLAIN2,36,"VERLAINE",,49.109510,6.166875,,,0,
VERLIN1,887,"VERLIN",,49.113330,6.027887,,,0,
VERLIN2,889,"VERLIN",,49.113328,6.027888,,,0,
VERNEVI1,771,"VERNEVILLE",,49.145264,6.005350,,,0,
VERNEVI2,769,"VERNEVILLE",,49.145044,6.005744,,,0,
VEZON1,844,"VEZON",,49.006553,6.094864,,,0,
VEZON2,842,"VEZON",,49.006553,6.094864,,,0,
VICTOIR1,221,"VICTOIRE",,49.125086,6.153174,,,0,
VICTOIR2,558,"VICTOIRE",,49.124987,6.153064,,,0,
VIGNES1,421,"LESVIGNES",,49.129368,6.145365,,,0,
VIGNES2,417,"LESVIGNES",,49.128849,6.145215,,,0,
VIGNOTT1,5080,"VIGNOTTES",,49.041999,6.156723,,,0,
VIGNOTT2,5079,"VIGNOTTES",,49.041971,6.156648,,,0,
VILLAS1,217,"VILLAS",,49.112731,6.157751,,,0,
VILLAS2,204,"VILLAS",,49.112647,6.157929,,,0,
VILLERS1,650,"VILLERS",,49.077253,6.324477,,,0,
VILLERS2,651,"VILLERS",,49.077215,6.323694,,,0,
VILLORM1,758,"VILLERS-L'ORME",,49.151940,6.247575,,,0,
VIN01,6100,"ST-VINCENT",,49.123270,6.171396,,,0,
VIN02,6105,"ST-VINCENT",,49.123891,6.172134,,,0,
VOLO1,610,"VOLO",,49.125353,6.206442,,,0,
VOLO2,596,"VOLO",,49.125279,6.206402,,,0,
VOLONTA1,504,"VOLONTAIRES",,49.086565,6.156623,,,0,
VOLONTA2,533,"VOLONTAIRES",,49.086587,6.156651,,,0,
VOSGES1,80,"VOSGES",,49.093539,6.132516,,,0,
VOSGES2,72,"VOSGES",,49.093670,6.132950,,,0,
WAVES1,865,"WAVESACTISUD",,49.080900,6.102280,,,0,
WCHATEA1,636,"WOIPPYCHATEAU",,49.152951,6.145005,,,0,
WCHATEA2,634,"WOIPPYCHATEAU",,49.152567,6.145716,,,0,
WOI01,6010,"P+RWOIPPY",,49.150349,6.173323,,,0,
WOI02,6015,"P+RWOIPPY",,49.150349,6.173321,,,0,
WOIPHOT1,637,"WOIPPY-HOTELDEVILLE",,49.151276,6.150050,,,0,
WOIPHOT2,633,"WOIPPY-HOTELDEVILLE",,49.151276,6.150049,,,0,
ZACAUGN1,705,"ZACD'AUGNY",,49.075077,6.106751,,,0,
ZACAUGN2,708,"ZACD'AUGNY",,49.074174,6.107641,,,0,
ZACGRAV1,864,"ZACLESGRAVIERES",,49.077468,6.113065,,,0,
ZHERGOT1,875,"ZONEHERGOTT",,49.159749,6.159053,,,0,
ZHERGOT2,884,"ZONEHERGOTT",,49.158829,6.158544,,,0,
place_2FONT,,"DEUXFONTAINES",,49.148061,6.171578,,,1,
place_ARAGO,,"FRANCOISARAGO",,49.101866,6.224284,,,1,
place_AUBEPI,,"AUBEPINE",,49.071569,6.193588,,,1,
place_CLOUT,,"CLOUTIERS",,49.114068,6.230111,,,1,
place_CPOMP,,"CENTREPOMPIDOUMETZ",,49.109098,6.180880,,,1,
place_GBERN,,"GEORGESBERNANOS",,49.133318,6.168920,,,1,
place_GECOL,,"GRANDESECOLES",,49.093373,6.230112,,,1,
place_GSNCF,,"GAREMETZ",,49.110368,6.177609,,,1,
place_HMERC,,"HOPITALMERCY",,49.085830,6.243860,,,1,
place_JMICH,,"JULESMICHELET",,49.107634,6.227988,,,1,
place_LOTHR,,"LOTHAIRE",,49.099271,6.180423,,,1,
place_MOULI,,"MOULINS",,49.106477,6.111286,,,1,
place_PONTI,,"PONTIFFROY",,49.127140,6.174876,,,1,
place_PROVE,,"PROVENCE",,49.113262,6.216811,,,1,
place_REPUB,,"REPUBLIQUE",,49.114995,6.173385,,,1,
place_ROCHA,,"P+RROCHAMBEAU",,49.129623,6.170204,,,1,
place_ROIGE,,"ROIGEORGE",,49.110651,6.171616,,,1,
place_SEILL,,"SEILLE",,49.111741,6.185901,,,1,
place_SQLUX,,"SQUAREDULUXEMBOURG",,49.121245,6.168918,,,1,
place_SYMPH,,"SYMPHONIE",,49.104655,6.214243,,,1,
place_TIGNO,,"TIGNOMONT",,49.125883,6.159390,,,1,
place_ARMES,,"PLACED'ARMES",,49.119478,6.175437,,,1,
